{
  "type": "FeatureCollection",
  "features": [
    {
      "type": "Feature",
      "geometry": {
        "type": "Point",
        "coordinates": [
          130.8410469,
          -12.46044
        ]
      },
      "properties": {
        "city_name": "Darwin",
        "state": "NT",
        "product_id": "IDD10150"
      }
    },
    {
      "type": "Feature",
      "geometry": {
        "type": "Point",
        "coordinates": [
          133.8812885,
          -23.6983884
        ]
      },
      "properties": {
        "city_name": "Alice Springs",
        "state": "NT",
        "product_id": "IDD10161"
      }
    },
    {
      "type": "Feature",
      "geometry": {
        "type": "Point",
        "coordinates": [
          136.7759913,
          -12.1804346
        ]
      },
      "properties": {
        "city_name": "Nhulunbuy",
        "state": "NT",
        "product_id": "IDD10199"
      }
    },
    {
      "type": "Feature",
      "geometry": {
        "type": "Point",
        "coordinates": [
          132.2635993,
          -14.4646157
        ]
      },
      "properties": {
        "city_name": "Katherine",
        "state": "NT",
        "product_id": "IDD10200"
      }
    },
    {
      "type": "Feature",
      "geometry": {
        "type": "Point",
        "coordinates": [
          130.9869405,
          -25.2410108
        ]
      },
      "properties": {
        "city_name": "Yulara",
        "state": "NT",
        "product_id": "IDD10201"
      }
    },
    {
      "type": "Feature",
      "geometry": {
        "type": "Point",
        "coordinates": [
          132.8365938,
          -12.6738286
        ]
      },
      "properties": {
        "city_name": "Jabiru",
        "state": "NT",
        "product_id": "IDD10202"
      }
    },
    {
      "type": "Feature",
      "geometry": {
        "type": "Point",
        "coordinates": [
          134.1899847,
          -19.6481652
        ]
      },
      "properties": {
        "city_name": "Tennant Creek",
        "state": "NT",
        "product_id": "IDD10203"
      }
    },
    {
      "type": "Feature",
      "geometry": {
        "type": "Point",
        "coordinates": [
          129.5208699,
          -14.2413341
        ]
      },
      "properties": {
        "city_name": "Wadeye",
        "state": "NT",
        "product_id": "IDD10204"
      }
    },
    {
      "type": "Feature",
      "geometry": {
        "type": "Point",
        "coordinates": [
          134.226992,
          -12.0571775
        ]
      },
      "properties": {
        "city_name": "Maningrida",
        "state": "NT",
        "product_id": "IDD10205"
      }
    },
    {
      "type": "Feature",
      "geometry": {
        "type": "Point",
        "coordinates": [
          130.9844108,
          -12.4799608
        ]
      },
      "properties": {
        "city_name": "Palmerston",
        "state": "NT",
        "product_id": "IDD10206"
      }
    },
    {
      "type": "Feature",
      "geometry": {
        "type": "Point",
        "coordinates": [
          151.1081218,
          -34.0119817
        ]
      },
      "properties": {
        "city_name": "Canberra",
        "state": "NSW",
        "product_id": "IDN10035"
      }
    },
    {
      "type": "Feature",
      "geometry": {
        "type": "Point",
        "coordinates": [
          151.2082848,
          -33.8698439
        ]
      },
      "properties": {
        "city_name": "Sydney",
        "state": "NSW",
        "product_id": "IDN10064"
      }
    },
    {
      "type": "Feature",
      "geometry": {
        "type": "Point",
        "coordinates": [
          151.7795348,
          -32.9192953
        ]
      },
      "properties": {
        "city_name": "Newcastle",
        "state": "NSW",
        "product_id": "IDN11051"
      }
    },
    {
      "type": "Feature",
      "geometry": {
        "type": "Point",
        "coordinates": [
          151.3120675,
          -33.3117096
        ]
      },
      "properties": {
        "city_name": "Central Coast",
        "state": "NSW",
        "product_id": "IDN11052"
      }
    },
    {
      "type": "Feature",
      "geometry": {
        "type": "Point",
        "coordinates": [
          150.89385,
          -34.4243941
        ]
      },
      "properties": {
        "city_name": "Wollongong",
        "state": "NSW",
        "product_id": "IDN11053"
      }
    },
    {
      "type": "Feature",
      "geometry": {
        "type": "Point",
        "coordinates": [
          151.6656564,
          -30.5144881
        ]
      },
      "properties": {
        "city_name": "Armidale",
        "state": "NSW",
        "product_id": "IDN11101"
      }
    },
    {
      "type": "Feature",
      "geometry": {
        "type": "Point",
        "coordinates": [
          150.178289,
          -35.7072183
        ]
      },
      "properties": {
        "city_name": "Batemans Bay",
        "state": "NSW",
        "product_id": "IDN11102"
      }
    },
    {
      "type": "Feature",
      "geometry": {
        "type": "Point",
        "coordinates": [
          141.4511111,
          -31.965
        ]
      },
      "properties": {
        "city_name": "Broken Hill",
        "state": "NSW",
        "product_id": "IDN11103"
      }
    },
    {
      "type": "Feature",
      "geometry": {
        "type": "Point",
        "coordinates": [
          145.3045054,
          -31.9666628
        ]
      },
      "properties": {
        "city_name": "Cobar",
        "state": "NSW",
        "product_id": "IDN11104"
      }
    },
    {
      "type": "Feature",
      "geometry": {
        "type": "Point",
        "coordinates": [
          153.1094116,
          -30.2985996
        ]
      },
      "properties": {
        "city_name": "Coffs Harbour",
        "state": "NSW",
        "product_id": "IDN11105"
      }
    },
    {
      "type": "Feature",
      "geometry": {
        "type": "Point",
        "coordinates": [
          148.6026502,
          -32.2478964
        ]
      },
      "properties": {
        "city_name": "Dubbo",
        "state": "NSW",
        "product_id": "IDN11106"
      }
    },
    {
      "type": "Feature",
      "geometry": {
        "type": "Point",
        "coordinates": [
          149.7198009,
          -34.7523871
        ]
      },
      "properties": {
        "city_name": "Goulburn",
        "state": "NSW",
        "product_id": "IDN11107"
      }
    },
    {
      "type": "Feature",
      "geometry": {
        "type": "Point",
        "coordinates": [
          146.0081042,
          -34.334545
        ]
      },
      "properties": {
        "city_name": "Griffith",
        "state": "NSW",
        "product_id": "IDN11108"
      }
    },
    {
      "type": "Feature",
      "geometry": {
        "type": "Point",
        "coordinates": [
          150.3121633,
          -33.713759
        ]
      },
      "properties": {
        "city_name": "Katoomba",
        "state": "NSW",
        "product_id": "IDN11109"
      }
    },
    {
      "type": "Feature",
      "geometry": {
        "type": "Point",
        "coordinates": [
          153.2791883,
          -28.8077608
        ]
      },
      "properties": {
        "city_name": "Lismore",
        "state": "NSW",
        "product_id": "IDN11110"
      }
    },
    {
      "type": "Feature",
      "geometry": {
        "type": "Point",
        "coordinates": [
          149.0971567,
          -33.2820463
        ]
      },
      "properties": {
        "city_name": "Orange",
        "state": "NSW",
        "product_id": "IDN11111"
      }
    },
    {
      "type": "Feature",
      "geometry": {
        "type": "Point",
        "coordinates": [
          152.9103525,
          -31.4299499
        ]
      },
      "properties": {
        "city_name": "Port Macquarie",
        "state": "NSW",
        "product_id": "IDN11112"
      }
    },
    {
      "type": "Feature",
      "geometry": {
        "type": "Point",
        "coordinates": [
          150.9290159,
          -31.0900743
        ]
      },
      "properties": {
        "city_name": "Tamworth",
        "state": "NSW",
        "product_id": "IDN11113"
      }
    },
    {
      "type": "Feature",
      "geometry": {
        "type": "Point",
        "coordinates": [
          147.3677778,
          -35.115
        ]
      },
      "properties": {
        "city_name": "Wagga Wagga",
        "state": "NSW",
        "product_id": "IDN11114"
      }
    },
    {
      "type": "Feature",
      "geometry": {
        "type": "Point",
        "coordinates": [
          150.4177868,
          -34.4816626
        ]
      },
      "properties": {
        "city_name": "Bowral",
        "state": "NSW",
        "product_id": "IDN11116"
      }
    },
    {
      "type": "Feature",
      "geometry": {
        "type": "Point",
        "coordinates": [
          152.4608481,
          -31.912864
        ]
      },
      "properties": {
        "city_name": "Taree",
        "state": "NSW",
        "product_id": "IDN11117"
      }
    },
    {
      "type": "Feature",
      "geometry": {
        "type": "Point",
        "coordinates": [
          149.8408283,
          -36.6780983
        ]
      },
      "properties": {
        "city_name": "Bega",
        "state": "NSW",
        "product_id": "IDN11118"
      }
    },
    {
      "type": "Feature",
      "geometry": {
        "type": "Point",
        "coordinates": [
          149.1261779,
          -36.2356785
        ]
      },
      "properties": {
        "city_name": "Cooma",
        "state": "NSW",
        "product_id": "IDN11119"
      }
    },
    {
      "type": "Feature",
      "geometry": {
        "type": "Point",
        "coordinates": [
          153.5369986,
          -28.1786639
        ]
      },
      "properties": {
        "city_name": "Tweed Heads",
        "state": "NSW",
        "product_id": "IDN11121"
      }
    },
    {
      "type": "Feature",
      "geometry": {
        "type": "Point",
        "coordinates": [
          153.0235009,
          -27.4689623
        ]
      },
      "properties": {
        "city_name": "Brisbane",
        "state": "QLD",
        "product_id": "IDQ10095"
      }
    },
    {
      "type": "Feature",
      "geometry": {
        "type": "Point",
        "coordinates": [
          153.4145987,
          -28.0023731
        ]
      },
      "properties": {
        "city_name": "Gold Coast",
        "state": "QLD",
        "product_id": "IDQ10610"
      }
    },
    {
      "type": "Feature",
      "geometry": {
        "type": "Point",
        "coordinates": [
          153.0933668,
          -26.6544338
        ]
      },
      "properties": {
        "city_name": "Sunshine Coast",
        "state": "QLD",
        "product_id": "IDQ10611"
      }
    },
    {
      "type": "Feature",
      "geometry": {
        "type": "Point",
        "coordinates": [
          139.3523124,
          -25.8980596
        ]
      },
      "properties": {
        "city_name": "Birdsville",
        "state": "QLD",
        "product_id": "IDQ10900"
      }
    },
    {
      "type": "Feature",
      "geometry": {
        "type": "Point",
        "coordinates": [
          152.3516785,
          -24.8653253
        ]
      },
      "properties": {
        "city_name": "Bundaberg",
        "state": "QLD",
        "product_id": "IDQ10901"
      }
    },
    {
      "type": "Feature",
      "geometry": {
        "type": "Point",
        "coordinates": [
          145.7721854,
          -16.9206657
        ]
      },
      "properties": {
        "city_name": "Cairns",
        "state": "QLD",
        "product_id": "IDQ10902"
      }
    },
    {
      "type": "Feature",
      "geometry": {
        "type": "Point",
        "coordinates": [
          146.2420417,
          -26.406265
        ]
      },
      "properties": {
        "city_name": "Charleville",
        "state": "QLD",
        "product_id": "IDQ10903"
      }
    },
    {
      "type": "Feature",
      "geometry": {
        "type": "Point",
        "coordinates": [
          146.2709824,
          -20.0714089
        ]
      },
      "properties": {
        "city_name": "Charters Towers",
        "state": "QLD",
        "product_id": "IDQ10904"
      }
    },
    {
      "type": "Feature",
      "geometry": {
        "type": "Point",
        "coordinates": [
          148.1618622,
          -23.5263118
        ]
      },
      "properties": {
        "city_name": "Emerald",
        "state": "QLD",
        "product_id": "IDQ10906"
      }
    },
    {
      "type": "Feature",
      "geometry": {
        "type": "Point",
        "coordinates": [
          151.256132,
          -23.8431724
        ]
      },
      "properties": {
        "city_name": "Gladstone",
        "state": "QLD",
        "product_id": "IDQ10907"
      }
    },
    {
      "type": "Feature",
      "geometry": {
        "type": "Point",
        "coordinates": [
          150.2886154,
          -28.463433
        ]
      },
      "properties": {
        "city_name": "Goondiwindi",
        "state": "QLD",
        "product_id": "IDQ10908"
      }
    },
    {
      "type": "Feature",
      "geometry": {
        "type": "Point",
        "coordinates": [
          152.6600256,
          -26.1900447
        ]
      },
      "properties": {
        "city_name": "Gympie",
        "state": "QLD",
        "product_id": "IDQ10909"
      }
    },
    {
      "type": "Feature",
      "geometry": {
        "type": "Point",
        "coordinates": [
          152.8535216,
          -25.2985784
        ]
      },
      "properties": {
        "city_name": "Hervey Bay",
        "state": "QLD",
        "product_id": "IDQ10910"
      }
    },
    {
      "type": "Feature",
      "geometry": {
        "type": "Point",
        "coordinates": [
          152.7608348,
          -27.6160323
        ]
      },
      "properties": {
        "city_name": "Ipswich",
        "state": "QLD",
        "product_id": "IDQ10911"
      }
    },
    {
      "type": "Feature",
      "geometry": {
        "type": "Point",
        "coordinates": [
          144.2586898,
          -23.4378387
        ]
      },
      "properties": {
        "city_name": "Longreach",
        "state": "QLD",
        "product_id": "IDQ10913"
      }
    },
    {
      "type": "Feature",
      "geometry": {
        "type": "Point",
        "coordinates": [
          149.1865149,
          -21.141956
        ]
      },
      "properties": {
        "city_name": "Mackay",
        "state": "QLD",
        "product_id": "IDQ10914"
      }
    },
    {
      "type": "Feature",
      "geometry": {
        "type": "Point",
        "coordinates": [
          152.7019182,
          -25.537583
        ]
      },
      "properties": {
        "city_name": "Maryborough",
        "state": "QLD",
        "product_id": "IDQ10915"
      }
    },
    {
      "type": "Feature",
      "geometry": {
        "type": "Point",
        "coordinates": [
          139.4931522,
          -20.7289898
        ]
      },
      "properties": {
        "city_name": "Mount Isa",
        "state": "QLD",
        "product_id": "IDQ10916"
      }
    },
    {
      "type": "Feature",
      "geometry": {
        "type": "Point",
        "coordinates": [
          150.5134227,
          -23.3782137
        ]
      },
      "properties": {
        "city_name": "Rockhampton",
        "state": "QLD",
        "product_id": "IDQ10918"
      }
    },
    {
      "type": "Feature",
      "geometry": {
        "type": "Point",
        "coordinates": [
          148.7868137,
          -26.5710356
        ]
      },
      "properties": {
        "city_name": "Roma",
        "state": "QLD",
        "product_id": "IDQ10919"
      }
    },
    {
      "type": "Feature",
      "geometry": {
        "type": "Point",
        "coordinates": [
          151.953351,
          -27.5610193
        ]
      },
      "properties": {
        "city_name": "Toowoomba",
        "state": "QLD",
        "product_id": "IDQ10922"
      }
    },
    {
      "type": "Feature",
      "geometry": {
        "type": "Point",
        "coordinates": [
          146.8239537,
          -19.2569391
        ]
      },
      "properties": {
        "city_name": "Townsville",
        "state": "QLD",
        "product_id": "IDQ10923"
      }
    },
    {
      "type": "Feature",
      "geometry": {
        "type": "Point",
        "coordinates": [
          141.8710861,
          -12.6386641
        ]
      },
      "properties": {
        "city_name": "Weipa",
        "state": "QLD",
        "product_id": "IDQ10925"
      }
    },
    {
      "type": "Feature",
      "geometry": {
        "type": "Point",
        "coordinates": [
          138.5999312,
          -34.9281805
        ]
      },
      "properties": {
        "city_name": "Adelaide",
        "state": "SA",
        "product_id": "IDS10034"
      }
    },
    {
      "type": "Feature",
      "geometry": {
        "type": "Point",
        "coordinates": [
          137.5843572,
          -33.0382085
        ]
      },
      "properties": {
        "city_name": "Whyalla",
        "state": "SA",
        "product_id": "IDS11001"
      }
    },
    {
      "type": "Feature",
      "geometry": {
        "type": "Point",
        "coordinates": [
          135.8592218,
          -34.7211905
        ]
      },
      "properties": {
        "city_name": "Port Lincoln",
        "state": "SA",
        "product_id": "IDS11002"
      }
    },
    {
      "type": "Feature",
      "geometry": {
        "type": "Point",
        "coordinates": [
          140.7468863,
          -34.1743516
        ]
      },
      "properties": {
        "city_name": "Renmark",
        "state": "SA",
        "product_id": "IDS11003"
      }
    },
    {
      "type": "Feature",
      "geometry": {
        "type": "Point",
        "coordinates": [
          140.7842627,
          -37.8301386
        ]
      },
      "properties": {
        "city_name": "Mount Gambier",
        "state": "SA",
        "product_id": "IDS11004"
      }
    },
    {
      "type": "Feature",
      "geometry": {
        "type": "Point",
        "coordinates": [
          138.8586385,
          -35.0641302
        ]
      },
      "properties": {
        "city_name": "Mount Barker",
        "state": "SA",
        "product_id": "IDS11016"
      }
    },
    {
      "type": "Feature",
      "geometry": {
        "type": "Point",
        "coordinates": [
          145.9064073,
          -41.0523688
        ]
      },
      "properties": {
        "city_name": "Burnie",
        "state": "TAS",
        "product_id": "IDT13501"
      }
    },
    {
      "type": "Feature",
      "geometry": {
        "type": "Point",
        "coordinates": [
          147.4958801,
          -41.9284173
        ]
      },
      "properties": {
        "city_name": "Campbell Town",
        "state": "TAS",
        "product_id": "IDT13502"
      }
    },
    {
      "type": "Feature",
      "geometry": {
        "type": "Point",
        "coordinates": [
          146.3613011,
          -41.1797561
        ]
      },
      "properties": {
        "city_name": "Devonport",
        "state": "TAS",
        "product_id": "IDT13503"
      }
    },
    {
      "type": "Feature",
      "geometry": {
        "type": "Point",
        "coordinates": [
          147.0615332,
          -42.7801998
        ]
      },
      "properties": {
        "city_name": "New Norfolk",
        "state": "TAS",
        "product_id": "IDT13504"
      }
    },
    {
      "type": "Feature",
      "geometry": {
        "type": "Point",
        "coordinates": [
          145.5553843,
          -42.0801236
        ]
      },
      "properties": {
        "city_name": "Queenstown",
        "state": "TAS",
        "product_id": "IDT13505"
      }
    },
    {
      "type": "Feature",
      "geometry": {
        "type": "Point",
        "coordinates": [
          147.5147988,
          -41.1603858
        ]
      },
      "properties": {
        "city_name": "Scottsdale",
        "state": "TAS",
        "product_id": "IDT13506"
      }
    },
    {
      "type": "Feature",
      "geometry": {
        "type": "Point",
        "coordinates": [
          145.1282245,
          -40.8415455
        ]
      },
      "properties": {
        "city_name": "Smithton",
        "state": "TAS",
        "product_id": "IDT13507"
      }
    },
    {
      "type": "Feature",
      "geometry": {
        "type": "Point",
        "coordinates": [
          148.2493858,
          -41.3236306
        ]
      },
      "properties": {
        "city_name": "St Helens",
        "state": "TAS",
        "product_id": "IDT13508"
      }
    },
    {
      "type": "Feature",
      "geometry": {
        "type": "Point",
        "coordinates": [
          145.3282194,
          -42.1525389
        ]
      },
      "properties": {
        "city_name": "Strahan",
        "state": "TAS",
        "product_id": "IDT13509"
      }
    },
    {
      "type": "Feature",
      "geometry": {
        "type": "Point",
        "coordinates": [
          148.0757326,
          -42.124933
        ]
      },
      "properties": {
        "city_name": "Swansea",
        "state": "TAS",
        "product_id": "IDT13510"
      }
    },
    {
      "type": "Feature",
      "geometry": {
        "type": "Point",
        "coordinates": [
          146.1705057,
          -41.1571818
        ]
      },
      "properties": {
        "city_name": "Ulverstone",
        "state": "TAS",
        "product_id": "IDT13511"
      }
    },
    {
      "type": "Feature",
      "geometry": {
        "type": "Point",
        "coordinates": [
          147.3281233,
          -42.8825088
        ]
      },
      "properties": {
        "city_name": "Hobart",
        "state": "TAS",
        "product_id": "IDT13600"
      }
    },
    {
      "type": "Feature",
      "geometry": {
        "type": "Point",
        "coordinates": [
          147.1373496,
          -41.4340813
        ]
      },
      "properties": {
        "city_name": "Launceston",
        "state": "TAS",
        "product_id": "IDT13610"
      }
    },
    {
      "type": "Feature",
      "geometry": {
        "type": "Point",
        "coordinates": [
          144.9631732,
          -37.8142454
        ]
      },
      "properties": {
        "city_name": "Melbourne",
        "state": "VIC",
        "product_id": "IDV10450"
      }
    },
    {
      "type": "Feature",
      "geometry": {
        "type": "Point",
        "coordinates": [
          144.3598241,
          -38.1493248
        ]
      },
      "properties": {
        "city_name": "Geelong",
        "state": "VIC",
        "product_id": "IDV10701"
      }
    },
    {
      "type": "Feature",
      "geometry": {
        "type": "Point",
        "coordinates": [
          144.9992665,
          -38.3686597
        ]
      },
      "properties": {
        "city_name": "Mornington Peninsula",
        "state": "VIC",
        "product_id": "IDV10702"
      }
    },
    {
      "type": "Feature",
      "geometry": {
        "type": "Point",
        "coordinates": [
          146.8889344,
          -36.1179291
        ]
      },
      "properties": {
        "city_name": "Albury/Wodonga",
        "state": "VIC",
        "product_id": "IDV10703"
      }
    },
    {
      "type": "Feature",
      "geometry": {
        "type": "Point",
        "coordinates": [
          147.6304752,
          -37.8254509
        ]
      },
      "properties": {
        "city_name": "Bairnsdale",
        "state": "VIC",
        "product_id": "IDV10704"
      }
    },
    {
      "type": "Feature",
      "geometry": {
        "type": "Point",
        "coordinates": [
          143.8605645,
          -37.5623013
        ]
      },
      "properties": {
        "city_name": "Ballarat",
        "state": "VIC",
        "product_id": "IDV10705"
      }
    },
    {
      "type": "Feature",
      "geometry": {
        "type": "Point",
        "coordinates": [
          144.2826718,
          -36.7590183
        ]
      },
      "properties": {
        "city_name": "Bendigo",
        "state": "VIC",
        "product_id": "IDV10706"
      }
    },
    {
      "type": "Feature",
      "geometry": {
        "type": "Point",
        "coordinates": [
          143.5858537,
          -38.3399766
        ]
      },
      "properties": {
        "city_name": "Colac",
        "state": "VIC",
        "product_id": "IDV10707"
      }
    },
    {
      "type": "Feature",
      "geometry": {
        "type": "Point",
        "coordinates": [
          144.7516955,
          -36.1281405
        ]
      },
      "properties": {
        "city_name": "Echuca",
        "state": "VIC",
        "product_id": "IDV10708"
      }
    },
    {
      "type": "Feature",
      "geometry": {
        "type": "Point",
        "coordinates": [
          142.0242865,
          -37.7433872
        ]
      },
      "properties": {
        "city_name": "Hamilton",
        "state": "VIC",
        "product_id": "IDV10710"
      }
    },
    {
      "type": "Feature",
      "geometry": {
        "type": "Point",
        "coordinates": [
          142.2018105,
          -36.7148099
        ]
      },
      "properties": {
        "city_name": "Horsham",
        "state": "VIC",
        "product_id": "IDV10711"
      }
    },
    {
      "type": "Feature",
      "geometry": {
        "type": "Point",
        "coordinates": [
          146.4725527,
          -38.2117266
        ]
      },
      "properties": {
        "city_name": "Latrobe Valley",
        "state": "VIC",
        "product_id": "IDV10712"
      }
    },
    {
      "type": "Feature",
      "geometry": {
        "type": "Point",
        "coordinates": [
          142.1503146,
          -34.195274
        ]
      },
      "properties": {
        "city_name": "Mildura",
        "state": "VIC",
        "product_id": "IDV10714"
      }
    },
    {
      "type": "Feature",
      "geometry": {
        "type": "Point",
        "coordinates": [
          146.4008688,
          -37.2694615
        ]
      },
      "properties": {
        "city_name": "Mount Buller",
        "state": "VIC",
        "product_id": "IDV10715"
      }
    },
    {
      "type": "Feature",
      "geometry": {
        "type": "Point",
        "coordinates": [
          145.3513574,
          -37.8366965
        ]
      },
      "properties": {
        "city_name": "Mount Dandenong",
        "state": "VIC",
        "product_id": "IDV10716"
      }
    },
    {
      "type": "Feature",
      "geometry": {
        "type": "Point",
        "coordinates": [
          147.1280943,
          -36.9752998
        ]
      },
      "properties": {
        "city_name": "Mount Hotham",
        "state": "VIC",
        "product_id": "IDV10717"
      }
    },
    {
      "type": "Feature",
      "geometry": {
        "type": "Point",
        "coordinates": [
          148.4554712,
          -37.7037061
        ]
      },
      "properties": {
        "city_name": "Orbost",
        "state": "VIC",
        "product_id": "IDV10718"
      }
    },
    {
      "type": "Feature",
      "geometry": {
        "type": "Point",
        "coordinates": [
          147.0656717,
          -38.1094463
        ]
      },
      "properties": {
        "city_name": "Sale",
        "state": "VIC",
        "product_id": "IDV10719"
      }
    },
    {
      "type": "Feature",
      "geometry": {
        "type": "Point",
        "coordinates": [
          145.1362432,
          -37.0241543
        ]
      },
      "properties": {
        "city_name": "Seymour",
        "state": "VIC",
        "product_id": "IDV10721"
      }
    },
    {
      "type": "Feature",
      "geometry": {
        "type": "Point",
        "coordinates": [
          145.3988874,
          -36.3831633
        ]
      },
      "properties": {
        "city_name": "Shepparton",
        "state": "VIC",
        "product_id": "IDV10722"
      }
    },
    {
      "type": "Feature",
      "geometry": {
        "type": "Point",
        "coordinates": [
          143.5588436,
          -35.3390784
        ]
      },
      "properties": {
        "city_name": "Swan Hill",
        "state": "VIC",
        "product_id": "IDV10723"
      }
    },
    {
      "type": "Feature",
      "geometry": {
        "type": "Point",
        "coordinates": [
          146.3228311,
          -36.356434
        ]
      },
      "properties": {
        "city_name": "Wangaratta",
        "state": "VIC",
        "product_id": "IDV10725"
      }
    },
    {
      "type": "Feature",
      "geometry": {
        "type": "Point",
        "coordinates": [
          142.4814199,
          -38.3826242
        ]
      },
      "properties": {
        "city_name": "Warrnambool",
        "state": "VIC",
        "product_id": "IDV10726"
      }
    },
    {
      "type": "Feature",
      "geometry": {
        "type": "Point",
        "coordinates": [
          145.5913433,
          -38.6043664
        ]
      },
      "properties": {
        "city_name": "Wonthaggi",
        "state": "VIC",
        "product_id": "IDV10728"
      }
    },
    {
      "type": "Feature",
      "geometry": {
        "type": "Point",
        "coordinates": [
          147.2441791,
          -36.878683
        ]
      },
      "properties": {
        "city_name": "Falls Creek",
        "state": "VIC",
        "product_id": "IDV10730"
      }
    },
    {
      "type": "Feature",
      "geometry": {
        "type": "Point",
        "coordinates": [
          115.8605784,
          -31.9558967
        ]
      },
      "properties": {
        "city_name": "Perth",
        "state": "WA",
        "product_id": "IDW12300"
      }
    },
    {
      "type": "Feature",
      "geometry": {
        "type": "Point",
        "coordinates": [
          122.2240181,
          -17.9566909
        ]
      },
      "properties": {
        "city_name": "Broome",
        "state": "WA",
        "product_id": "IDW14101"
      }
    },
    {
      "type": "Feature",
      "geometry": {
        "type": "Point",
        "coordinates": [
          118.5801181,
          -20.3111814
        ]
      },
      "properties": {
        "city_name": "Port Hedland",
        "state": "WA",
        "product_id": "IDW14102"
      }
    },
    {
      "type": "Feature",
      "geometry": {
        "type": "Point",
        "coordinates": [
          116.8478592,
          -20.7370067
        ]
      },
      "properties": {
        "city_name": "Karratha",
        "state": "WA",
        "product_id": "IDW14103"
      }
    },
    {
      "type": "Feature",
      "geometry": {
        "type": "Point",
        "coordinates": [
          119.7331631,
          -23.357394
        ]
      },
      "properties": {
        "city_name": "Newman",
        "state": "WA",
        "product_id": "IDW14104"
      }
    },
    {
      "type": "Feature",
      "geometry": {
        "type": "Point",
        "coordinates": [
          114.1258094,
          -21.9324401
        ]
      },
      "properties": {
        "city_name": "Exmouth",
        "state": "WA",
        "product_id": "IDW14105"
      }
    },
    {
      "type": "Feature",
      "geometry": {
        "type": "Point",
        "coordinates": [
          113.6570703,
          -24.883847
        ]
      },
      "properties": {
        "city_name": "Carnarvon",
        "state": "WA",
        "product_id": "IDW14106"
      }
    },
    {
      "type": "Feature",
      "geometry": {
        "type": "Point",
        "coordinates": [
          114.6147159,
          -28.77035
        ]
      },
      "properties": {
        "city_name": "Geraldton",
        "state": "WA",
        "product_id": "IDW14107"
      }
    },
    {
      "type": "Feature",
      "geometry": {
        "type": "Point",
        "coordinates": [
          121.473223,
          -30.7464139
        ]
      },
      "properties": {
        "city_name": "Kalgoorlie",
        "state": "WA",
        "product_id": "IDW14108"
      }
    },
    {
      "type": "Feature",
      "geometry": {
        "type": "Point",
        "coordinates": [
          115.636698,
          -33.3267797
        ]
      },
      "properties": {
        "city_name": "Bunbury",
        "state": "WA",
        "product_id": "IDW14109"
      }
    },
    {
      "type": "Feature",
      "geometry": {
        "type": "Point",
        "coordinates": [
          117.883608,
          -35.0247822
        ]
      },
      "properties": {
        "city_name": "Albany",
        "state": "WA",
        "product_id": "IDW14110"
      }
    },
    {
      "type": "Feature",
      "geometry": {
        "type": "Point",
        "coordinates": [
          121.8931606,
          -33.858228
        ]
      },
      "properties": {
        "city_name": "Esperance",
        "state": "WA",
        "product_id": "IDW14111"
      }
    },
    {
      "type": "Feature",
      "geometry": {
        "type": "Point",
        "coordinates": [
          128.738839,
          -15.7730916
        ]
      },
      "properties": {
        "city_name": "Kununurra",
        "state": "WA",
        "product_id": "IDW14112"
      }
    },
    {
      "type": "Feature",
      "geometry": {
        "type": "Point",
        "coordinates": [
          118.4957043,
          -26.5925631
        ]
      },
      "properties": {
        "city_name": "Meekatharra",
        "state": "WA",
        "product_id": "IDW14113"
      }
    },
    {
      "type": "Feature",
      "geometry": {
        "type": "Point",
        "coordinates": [
          115.7208782,
          -32.5302495
        ]
      },
      "properties": {
        "city_name": "Mandurah",
        "state": "WA",
        "product_id": "IDW14114"
      }
    },
    {
      "type": "Feature",
      "geometry": {
        "type": "Point",
        "coordinates": [
          115.3488754,
          -33.644499
        ]
      },
      "properties": {
        "city_name": "Busselton",
        "state": "WA",
        "product_id": "IDW14115"
      }
    }
  ]
}